[
    {
        "title": "Công Ty CP xe khách Phương Trang",
        "lat": 10.7597268,
        "lng": 106.677128,
        "address": "231, 233 Đ. Lê Hồng Phong, Phường 4, Quận 5, Thành phố Hồ Chí Minh, Vietnam",
        "typeOfLocation": "Cây xăng",
        "adsFormat": "Quảng cáo thương mại",
        "isPlanned": true,
        "image": "",
        "ward": "4",
        "district": "5"
    },
    {
        "title": "Ho Chi Minh City University of Education",
        "lat": 10.761383200000001,
        "lng": 106.68217109999999,
        "address": "280 Đ. An Dương Vương, Phường 4, Quận 5, Thành phố Hồ Chí Minh 720000, Vietnam",
        "typeOfLocation": "Đất tư nhân/Nhà ở riêng lẻ",
        "adsFormat": "Xã hội hoá",
        "isPlanned": false,
        "image": "",
        "ward": "4",
        "district": "5"
    },
    {
        "title": "Trung tâm Bồi đường Văn hóa ĐH KHTN",
        "lat": 10.7623158,
        "lng": 106.6826548,
        "address": "227 Đ. Nguyễn Văn Cừ, Phường 4, Quận 5, Thành phố Hồ Chí Minh, Vietnam",
        "typeOfLocation": "Đất tư nhân/Nhà ở riêng lẻ",
        "adsFormat": "Quảng cáo thương mại",
        "isPlanned": false,
        "image": "",
        "ward": "4",
        "district": "5"
    },
    {
        "title": "University of Science - VNUHCM",
        "lat": 10.762835599999999,
        "lng": 106.6824824,
        "address": "227 Đ. Nguyễn Văn Cừ, Phường 4, Quận 5, Thành phố Hồ Chí Minh, Vietnam",
        "typeOfLocation": "Đất tư nhân/Nhà ở riêng lẻ",
        "adsFormat": "Cổ động chính trị",
        "isPlanned": false,
        "image": "",
        "ward": "4",
        "district": "5"
    },
    {
        "title": "Lam Sơn Sports Complex",
        "lat": 10.7623271,
        "lng": 106.67982409999999,
        "address": "320/1 Đ. Trần Bình Trọng, Phường 4, Quận 5, Thành phố Hồ Chí Minh, Vietnam",
        "typeOfLocation": "Cây xăng",
        "adsFormat": "Xã hội hoá",
        "isPlanned": false,
        "image": "",
        "ward": "4",
        "district": "5"
    },
    {
        "title": "Nguyen Van Cu Bookstore",
        "lat": 10.7647677,
        "lng": 106.6816667,
        "address": "241 Đ. Nguyễn Văn Cừ, Phường 4, Thành phố Hồ Chí Minh, 77000, Vietnam",
        "typeOfLocation": "Chợ",
        "adsFormat": "Xã hội hoá",
        "isPlanned": false,
        "image": "",
        "ward": "4",
        "district": "Thành phố Hồ Chí Minh"
    },
    {
        "title": "Apolo English",
        "lat": 10.760588199999999,
        "lng": 106.67996250000002,
        "address": "204 Đ. Trần Bình Trọng, Phường 4, Quận 5, Thành phố Hồ Chí Minh, Vietnam",
        "typeOfLocation": "Đất tư nhân/Nhà ở riêng lẻ",
        "adsFormat": "Cổ động chính trị",
        "isPlanned": true,
        "image": "",
        "ward": "4",
        "district": "5"
    },
    {
        "title": "An Phú Express - Chuyển Phát Nhanh",
        "lat": 10.759951899999999,
        "lng": 106.67737419999999,
        "address": "220 Đ. Lê Hồng Phong, Phường 4, Quận 5, Thành phố Hồ Chí Minh, Vietnam",
        "typeOfLocation": "Nhà chờ xe buýt",
        "adsFormat": "Quảng cáo thương mại",
        "isPlanned": false,
        "image": "",
        "ward": "4",
        "district": "5"
    },
    {
        "title": "The IELTS Workshop Quận 5",
        "lat": 10.7607517,
        "lng": 106.67989639999999,
        "address": "210A Đ. Trần Bình Trọng, Phường 4, Quận 5, Thành phố Hồ Chí Minh 700000, Vietnam",
        "typeOfLocation": "Nhà chờ xe buýt",
        "adsFormat": "Quảng cáo thương mại",
        "isPlanned": false,
        "image": "",
        "ward": "4",
        "district": "5"
    },
    {
        "title": "Mì Cay Sasin An Dương Vương",
        "lat": 10.7602245,
        "lng": 106.68058719999999,
        "address": "292a Đ. An Dương Vương, Phường 4, Quận 5, Thành phố Hồ Chí Minh, Vietnam",
        "typeOfLocation": "Trung tâm thương mại",
        "adsFormat": "Cổ động chính trị",
        "isPlanned": false,
        "image": "",
        "ward": "4",
        "district": "5"
    },
    {
        "title": "Shinhan Bank, An Dong Branch",
        "lat": 10.7603565,
        "lng": 106.68061469999999,
        "address": "290B Đ. An Dương Vương, Phường 4, Quận 5, Thành phố Hồ Chí Minh, Vietnam",
        "typeOfLocation": "Nhà chờ xe buýt",
        "adsFormat": "Quảng cáo thương mại",
        "isPlanned": false,
        "image": "",
        "ward": "4",
        "district": "5"
    },
    {
        "title": "Le Hong Phong High School for The Gifted",
        "lat": 10.763846599999999,
        "lng": 106.6817617,
        "address": "235 Đ. Nguyễn Văn Cừ, Phường 4, Quận 5, Thành phố Hồ Chí Minh 70000, Vietnam",
        "typeOfLocation": "Trung tâm thương mại",
        "adsFormat": "Cổ động chính trị",
        "isPlanned": true,
        "image": "",
        "ward": "4",
        "district": "5"
    },
    {
        "title": "EX World - Business Center",
        "lat": 10.7643796,
        "lng": 106.68123489999999,
        "address": "5A/2, Đ. Trần Phú, St, Quận 5, Thành phố Hồ Chí Minh, Vietnam",
        "typeOfLocation": "Chợ",
        "adsFormat": "Xã hội hoá",
        "isPlanned": false,
        "image": "",
        "ward": "Đ. Trần Phú, St",
        "district": "5"
    },
    {
        "title": "Công Ty Tnhh Một Thành Viên Cực Nam",
        "lat": 10.762384599999999,
        "lng": 106.6767723,
        "address": "131 Đ. Hùng Vương, Phường 4, Quận 5, Thành phố Hồ Chí Minh, Vietnam",
        "typeOfLocation": "Cây xăng",
        "adsFormat": "Xã hội hoá",
        "isPlanned": false,
        "image": "",
        "ward": "4",
        "district": "5"
    },
    {
        "title": "Giao Nước, Đổi Nước tại quận 10 - Công Ty TNHH DVTM Lê Đức",
        "lat": 10.7651387,
        "lng": 106.67495629999999,
        "address": "01 Đ. Vĩnh Viễn, Phường 2, Quận 10, Thành phố Hồ Chí Minh 700000, Vietnam",
        "typeOfLocation": "Đất công/Công viên/Hành lang an toàn giao thông",
        "adsFormat": "Quảng cáo thương mại",
        "isPlanned": false,
        "image": "",
        "ward": "2",
        "district": "10"
    },
    {
        "title": "HEAD Minh Khang 1",
        "lat": 10.7638436,
        "lng": 106.6804217,
        "address": "9 Đ. Trần Phú, Phường 4, Quận 5, Thành phố Hồ Chí Minh, Vietnam",
        "typeOfLocation": "Nhà chờ xe buýt",
        "adsFormat": "Xã hội hoá",
        "isPlanned": false,
        "image": "",
        "ward": "4",
        "district": "5"
    },
    {
        "title": "Phụ Tùng Ô Tô Huy",
        "lat": 10.7610025,
        "lng": 106.6795164,
        "address": "269 Đ. Trần Bình Trọng, Phường 4, Quận 5, Thành phố Hồ Chí Minh, Vietnam",
        "typeOfLocation": "Cây xăng",
        "adsFormat": "Quảng cáo thương mại",
        "isPlanned": false,
        "image": "",
        "ward": "4",
        "district": "5"
    },
    {
        "title": "Công Ty TNHH Tư Vấn Và Đầu Tư Hoàng Sơn",
        "lat": 10.7603436,
        "lng": 106.68016949999999,
        "address": "196 Đ. Trần Bình Trọng, Phường 4, Quận 5, Thành phố Hồ Chí Minh, Vietnam",
        "typeOfLocation": "Trung tâm thương mại",
        "adsFormat": "Quảng cáo thương mại",
        "isPlanned": true,
        "image": "",
        "ward": "4",
        "district": "5"
    },
    {
        "title": "Nhà Thuốc FPT Long Châu",
        "lat": 10.7660559,
        "lng": 106.69632159999999,
        "address": "580 Đ. Cô Bắc, Phường Cô Giang, Quận 1, Thành phố Hồ Chí Minh 700000, Vietnam",
        "typeOfLocation": "Đất tư nhân/Nhà ở riêng lẻ",
        "adsFormat": "Xã hội hoá",
        "isPlanned": false,
        "image": "",
        "ward": "Cô Giang",
        "district": "1"
    },
    {
        "title": "Ngân Hàng Tmcp Ngoại Thương Việt Nam (Vietcombank) - Pgd Nguyễn Thị Minh Khai",
        "lat": 10.7754944,
        "lng": 106.6863425,
        "address": "76 Đ. Cách Mạng Tháng 8, Phường 4, Quận 3, Thành phố Hồ Chí Minh, Vietnam",
        "typeOfLocation": "Cây xăng",
        "adsFormat": "Quảng cáo thương mại",
        "isPlanned": false,
        "image": "",
        "ward": "4",
        "district": "3"
    },
    {
        "title": "Công Ty Cp In Sách Giáo Khoa Tp. Hcm (Hcmtpc)",
        "lat": 10.761249099999999,
        "lng": 106.6797611,
        "address": "240 Đ. Trần Bình Trọng, Phường 4, Quận 5, Thành phố Hồ Chí Minh, Vietnam",
        "typeOfLocation": "Chợ",
        "adsFormat": "Cổ động chính trị",
        "isPlanned": false,
        "image": "",
        "ward": "4",
        "district": "5"
    },
    {
        "title": "Khu Căn Hộ Cao Cấp EVERICH INFINITY",
        "lat": 10.7606857,
        "lng": 106.68093739999999,
        "address": "290 Đ. An Dương Vương, Phường 4, Quận 5, Thành phố Hồ Chí Minh, Vietnam",
        "typeOfLocation": "Đất công/Công viên/Hành lang an toàn giao thông",
        "adsFormat": "Quảng cáo thương mại",
        "isPlanned": false,
        "image": "",
        "ward": "4",
        "district": "5"
    },
    {
        "title": "International Bank - VIB Ho Chi Minh City",
        "lat": 10.7605106,
        "lng": 106.6810903,
        "address": "288A Đ. An Dương Vương, Phường 4, Quận 5, Thành phố Hồ Chí Minh, Vietnam",
        "typeOfLocation": "Cây xăng",
        "adsFormat": "Quảng cáo thương mại",
        "isPlanned": false,
        "image": "",
        "ward": "4",
        "district": "5"
    },
    {
        "title": "Saigon Practical High School",
        "lat": 10.7609795,
        "lng": 106.67986,
        "address": "220 Đ. Trần Bình Trọng, Phường 4, Quận 5, Thành phố Hồ Chí Minh, Vietnam",
        "typeOfLocation": "Chợ",
        "adsFormat": "Quảng cáo thương mại",
        "isPlanned": false,
        "image": "",
        "ward": "4",
        "district": "5"
    },
    {
        "title": "Cửa Hàng Giao Dịch Viettel",
        "lat": 10.7452171,
        "lng": 106.6635422,
        "address": "889 Đ. Hưng Phú, Phường 10, Quận 8, Thành phố Hồ Chí Minh, Vietnam",
        "typeOfLocation": "Đất công/Công viên/Hành lang an toàn giao thông",
        "adsFormat": "Cổ động chính trị",
        "isPlanned": false,
        "image": "",
        "ward": "10",
        "district": "8"
    },
    {
        "title": "Trung Tâm Bảo Hành VietMap",
        "lat": 10.759044000000001,
        "lng": 106.67593529999999,
        "address": "199 Đ. Trần Phú, Phường 4, Quận 5, Thành phố Hồ Chí Minh 70000, Vietnam",
        "typeOfLocation": "Trung tâm thương mại",
        "adsFormat": "Cổ động chính trị",
        "isPlanned": true,
        "image": "",
        "ward": "4",
        "district": "5"
    },
    {
        "title": "Gallery Hoang Khang",
        "lat": 10.7591945,
        "lng": 106.6759458,
        "address": "195 Đ. Trần Phú, Phường 4, Quận 5, Thành phố Hồ Chí Minh, Vietnam",
        "typeOfLocation": "Đất công/Công viên/Hành lang an toàn giao thông",
        "adsFormat": "Xã hội hoá",
        "isPlanned": false,
        "image": "",
        "ward": "4",
        "district": "5"
    },
    {
        "title": "Popeyes An Duong Vuong",
        "lat": 10.7598924,
        "lng": 106.67948059999999,
        "address": "326 Đ. An Dương Vương, Phường 4, Quận 5, Thành phố Hồ Chí Minh, Vietnam",
        "typeOfLocation": "Cây xăng",
        "adsFormat": "Quảng cáo thương mại",
        "isPlanned": true,
        "image": "",
        "ward": "4",
        "district": "5"
    },
    {
        "title": "Trung tâm Kumon Trần Bình Trọng",
        "lat": 10.7605001,
        "lng": 106.67961299999999,
        "address": "251 Đ. Trần Bình Trọng, Phường 4, Quận 5, Thành phố Hồ Chí Minh, Vietnam",
        "typeOfLocation": "Đất công/Công viên/Hành lang an toàn giao thông",
        "adsFormat": "Xã hội hoá",
        "isPlanned": false,
        "image": "",
        "ward": "4",
        "district": "5"
    }
]
